{
  "type": "FeatureCollection",
  "features": [
    {
      "type": "Feature",
      "geometry": {
        "type": "Point",
        "coordinates": [103.8524254, 1.2936097]
      },
      "properties": {
        "name": "An Ocean Without The Anchor",
        "number": 1,
        "category": "Night Lights",
        "description": "by Speak Cryptic"
      }
    },
    {
      "type": "Feature",
      "geometry": {
        "type": "Point",
        "coordinates": [103.85190098531228, 1.293894248563846]
      },
      "properties": {
        "name": "Paddy Fields",
        "number": 2,
        "category": "Night Lights",
        "description": "by FARM"
      }
    },
    {
      "type": "Feature",
      "geometry": {
        "type": "Point",
        "coordinates": [103.8491155, 1.2931793]
      },
      "properties": {
        "name": "latent (BBB edition)",
        "number": 3,
        "category": "Night Lights",
        "description": "by Chok Si Xuan"
      }
    },
    {
      "type": "Feature",
      "geometry": {
        "type": "Point",
        "coordinates": [103.8491514, 1.296255]
      },
      "properties": {
        "name": "We can no longer be strangers after this",
        "number": 4,
        "category": "Night Lights",
        "description": "by Perception3"
      }
    },
    {
      "type": "Feature",
      "geometry": {
        "type": "Point",
        "coordinates": [103.8484346, 1.2969499]
      },
      "properties": {
        "name": "Steps (2022)",
        "number": 5,
        "category": "Night Lights",
        "description": "by Victoria Hertel"
      }
    },
    {
      "type": "Feature",
      "geometry": {
        "type": "Point",
        "coordinates": [103.848338, 1.2940226]
      },
      "properties": {
        "name": "tobyato bird pitstop",
        "number": 6,
        "category": "Night Lights",
        "description": "by tobyato"
      }
    },
    {
      "type": "Feature",
      "geometry": {
        "type": "Point",
        "coordinates": [103.84634363846436, 1.2973057900933445]
      },
      "properties": {
        "name": "Tunnel Graffiti",
        "number": 7,
        "category": "Night Lights",
        "description": "by Lynette Quek"
      }
    },
    {
      "type": "Feature",
      "geometry": {
        "type": "Point",
        "coordinates": [103.84635, 1.29728]
      },
      "properties": {
        "name": "Under My Tree Roof",
        "number": 8,
        "category": "Night Lights",
        "description": "by Chloë Manasseh"
      }
    },
    {
      "type": "Feature",
      "geometry": {
        "type": "Point",
        "coordinates": [103.8498592, 1.2966847]
      },
      "properties": {
        "name": "Fècundus",
        "number": 9,
        "category": "Night Lights",
        "description": "by Twardzik Ching\nChor Leng"
      }
    },
    {
      "type": "Feature",
      "geometry": {
        "type": "Point",
        "coordinates": [103.8522121, 1.2986359]
      },
      "properties": {
        "name": "NOCTURNE: Conversations",
        "number": 10,
        "category": "Night Lights",
        "description": "with Waterloo\nby Nhawfal Juma'at"
      }
    },
    {
      "type": "Feature",
      "geometry": {
        "type": "Point",
        "coordinates": [103.8527945, 1.299873]
      },
      "properties": {
        "name": "Celebration of Life+Style",
        "number": 11,
        "category": "Night Lights",
        "description": "by Justin Lee"
      }
    },
    {
      "type": "Feature",
      "geometry": {
        "type": "Point",
        "coordinates": [103.8534751, 1.2971691]
      },
      "properties": {
        "name": "City of Books",
        "number": 12,
        "category": "Night Lights",
        "description": "by Fish Jaafar"
      }
    },
    {
      "type": "Feature",
      "geometry": { "type": "Point", "coordinates": [103.8489653, 1.2964849] },
      "properties": {
        "name": "#SGNIGHTFEST",
        "number": 13,
        "category": "Night Lights",
        "description": "by Pan-United"
      }
    },
    {
      "type": "Feature",
      "geometry": {
        "type": "Point",
        "coordinates": [103.84941555541921, 1.2942113254425667]
      },
      "properties": {
        "name": "PALIMPSEST",
        "number": 14,
        "category": "Night Lights",
        "description": "by William Chan\nand Brandon Tay"
      }
    },
    {
      "type": "Feature",
      "geometry": {
        "type": "Point",
        "coordinates": [103.8534825, 1.2985993]
      },
      "properties": {
        "name": "TERRARIUM",
        "number": 15,
        "category": "Night Lights",
        "description": "by Aux Media Group,\nBinary Style,\nPAPERSYNTHESIS and\nBIOS: Living NFTs"
      }
    },
    {
      "type": "Feature",
      "geometry": {
        "type": "Point",
        "coordinates": [103.85146134510529, 1.2931007069697908]
      },
      "properties": {
        "name": "Jazz'in @ Capitol Singapore",
        "number": 16,
        "category": "Performances"
      }
    },
    {
      "type": "Feature",
      "geometry": {
        "type": "Point",
        "coordinates": [103.85012618658565, 1.2972116857857658]
      },
      "properties": {
        "name": "Groovy Town @ SMU",
        "number": 17,
        "category": "Performances"
      }
    },
    {
      "type": "Feature",
      "geometry": {
        "type": "Point",
        "coordinates": [103.85206874416602, 1.2991596780412606]
      },
      "properties": {
        "name": "Discoloo Centre",
        "number": 18,
        "category": "Performances"
      }
    },
    {
      "type": "Feature",
      "geometry": {
        "type": "Point",
        "coordinates": [103.84975139659664, 1.2970458637863027]
      },
      "properties": {
        "name": "Yesterday Once More: Queen Street",
        "number": 19,
        "category": "Performances"
      }
    },
    {
      "type": "Feature",
      "geometry": {
        "type": "Point",
        "coordinates": [103.8496037, 1.2941195]
      },
      "properties": {
        "name": "Armenian Street Party",
        "number": 20,
        "category": "Performances"
      }
    },
    {
      "type": "Feature",
      "geometry": { "type": "Point", "coordinates": [103.8479709, 1.298533] },
      "properties": {
        "name": "Cathay Hotel: The Curse of the Missing Red Shoe\nby Vertical Submarine",
        "number": 21,
        "category": "Highlight Act"
      }
    },
    {
      "type": "Feature",
      "geometry": {
        "type": "Point",
        "coordinates": [103.8522634, 1.2949146]
      },
      "properties": {
        "name": "Through Worlds",
        "number": 22,
        "category": "Projection Mapping",
        "description": "by Jo Ho &\nIntriguant"
      }
    },
    {
      "type": "Feature",
      "geometry": { "type": "Point", "coordinates": [103.8508489, 1.2945395] },
      "properties": {
        "name": "Glitches of You, The Melting Pot, Madeleine",
        "number": 23,
        "category": "Projection Mapping",
        "description": "Glitches of You by Amanda Tan\nThe Melting Pot by Adeline Tan & Benedict Teo\nMadeleine by Lueur"
      }
    },
    {
      "type": "Feature",
      "geometry": {
        "type": "Point",
        "coordinates": [103.8487387, 1.2933687]
      },
      "properties": {
        "name": "Midnight Show at the Capitol",
        "number": 24,
        "category": "Projection Mapping",
        "description": "by MOJOKO"
      }
    },
    {
      "type": "Feature",
      "geometry": {
        "type": "Point",
        "coordinates": [103.848916, 1.2969214]
      },
      "properties": {
        "name": "Stories from Forbidden Hill",
        "number": 25,
        "category": "Projection Mapping",
        "description": "by Maxin10sity"
      }
    },
    {
      "type": "Feature",
      "geometry": {
        "type": "Point",
        "coordinates": [103.85474163788935, 1.3010789848158537]
      },
      "properties": {
        "name": "Explore SG Night Fest with Trishaw Uncle",
        "number": 26,
        "category": "Experiential Programmes"
      }
    },
    {
      "type": "Feature",
      "geometry": {
        "type": "Point",
        "coordinates": [103.85443737292601, 1.300931837697278]
      },
      "properties": {
        "name": "SG Night Fest Food Tour",
        "number": 27,
        "category": "Experiential Programmes"
      }
    },
    {
      "type": "Feature",
      "geometry": {
        "type": "Point",
        "coordinates": [103.84851, 1.29653]
      },
      "properties": {
        "name": "After Hours @ My Bras Basah with May Hui",
        "number": 28,
        "category": "Experiential Programmes"
      }
    },
    {
      "type": "Feature",
      "geometry": {
        "type": "Point",
        "coordinates": [103.84851, 1.29663]
      },
      "properties": {
        "name": "Heat Of The Night",
        "number": 29,
        "category": "Experiential Programmes"
      }
    },
    {
      "type": "Feature",
      "geometry": {
        "type": "Point",
        "coordinates": [103.8518286, 1.2934493]
      },
      "properties": {
        "name": "Hopscotch",
        "number": 30,
        "category": "Bbbooze O'clock Powered By Sui Gin Bars"
      }
    },
    {
      "type": "Feature",
      "geometry": {
        "type": "Point",
        "coordinates": [103.8545795, 1.2962704]
      },
      "properties": {
        "name": "Vertigo26",
        "number": 31,
        "category": "Bbbooze O'clock Powered By Sui Gin Bars"
      }
    },
    {
      "type": "Feature",
      "geometry": {
        "type": "Point",
        "coordinates": [103.8518396, 1.294927]
      },
      "properties": {
        "name": "Analogue",
        "number": 32,
        "category": "Bbbooze O'clock Powered By Sui Gin Bars"
      }
    },
    {
      "type": "Feature",
      "geometry": {
        "type": "Point",
        "coordinates": [103.8496711, 1.2992912]
      },
      "properties": {
        "name": "Mama Diam",
        "number": 33,
        "category": "Bbbooze O'clock Powered By Sui Gin Bars"
      }
    },
    {
      "type": "Feature",
      "geometry": {
        "type": "Point",
        "coordinates": [103.8465936, 1.2986203]
      },
      "properties": {
        "name": "GudSht",
        "number": 34,
        "category": "Bbbooze O'clock Powered By Sui Gin Bars"
      }
    },
    {
      "type": "Feature",
      "geometry": {
        "type": "Point",
        "coordinates": [103.84606183448386, 1.2984276823148766]
      },
      "properties": {
        "name": "After Dark @ Dhoby Ghaut Green",
        "category": "Festival Villages"
      }
    },
    {
      "type": "Feature",
      "geometry": { "type": "Point", "coordinates": [103.849189, 1.296384] },
      "properties": {
        "name": "Information",
        "category": "Information",
        "zindex": -1
      }
    },
    {
      "type": "Feature",
      "geometry": {
        "type": "Point",
        "coordinates": [103.8453614, 1.2985541]
      },
      "properties": {
        "name": "Information",
        "category": "Information",
        "zindex": -1
      }
    },
    {
      "type": "Feature",
      "geometry": {
        "type": "Point",
        "coordinates": [103.8498163, 1.2948377]
      },
      "properties": {
        "name": "Information",
        "category": "Information",
        "zindex": -1
      }
    },
    {
      "type": "Feature",
      "geometry": {
        "type": "Point",
        "coordinates": [103.8489239, 1.2929228]
      },
      "properties": {
        "name": "First Aid Point",
        "category": "First Aid Point",
        "zindex": -1
      }
    },
    {
      "type": "Feature",
      "geometry": {
        "type": "Point",
        "coordinates": [103.8477985, 1.2970585]
      },
      "properties": {
        "name": "First Aid Point",
        "category": "First Aid Point",
        "zindex": -1
      }
    },
    {
      "type": "Feature",
      "geometry": {
        "type": "Point",
        "coordinates": [103.8531803, 1.3002451]
      },
      "properties": {
        "name": "First Aid Point",
        "category": "First Aid Point",
        "zindex": -1
      }
    }
  ]
}
